City_ID,City,Lat,Lng,Max Temp,Humidity,Cloudiness,Wind Speed,Country,Date
0,cabedelo,-6.9811,-34.8339,23.37,76,2,3.52,BR,1696218869
1,blackmans bay,-43.0167,147.3167,21.52,32,63,5.05,AU,1696218712
2,tezu,27.9167,96.1667,25.74,96,100,0.41,IN,1696218869
3,keflavik,64.0049,-22.5624,8.95,76,0,7.72,IS,1696218699
4,am timan,11.0297,20.2827,23.45,84,92,1.64,TD,1696218869
5,edinburgh of the seven seas,-37.0676,-12.3116,9.75,66,97,10.29,SH,1696218699
6,vorgashor,67.5833,63.95,8.95,97,100,6.64,RU,1696218700
7,hermanus,-34.4187,19.2345,14.02,60,0,4.29,ZA,1696218706
8,pangody,65.85,74.4859,6.21,98,100,5.95,RU,1696218869
9,castillos,-34.1667,-53.8333,7.35,90,14,1.29,UY,1696218789
10,yanchep,-31.55,115.6833,17.79,53,85,8.9,AU,1696218870
11,katsuren-haebaru,26.3369,127.8719,30.22,71,75,7.2,JP,1696218870
12,albany,42.6001,-73.9662,17.73,91,5,2.09,US,1696218601
13,waitangi,-43.9535,-176.5597,14.34,88,83,3.13,NZ,1696218870
14,nova vicosa,-17.8919,-39.3719,22.0,78,98,2.82,BR,1696218870
15,puerto baquerizo moreno,-0.9,-89.6,22.61,89,98,4.69,EC,1696218747
16,avarua,-21.2078,-159.775,22.03,88,75,5.14,CK,1696218870
17,adamstown,-25.066,-130.1015,20.51,79,38,11.13,PN,1696218700
18,carora,10.1755,-70.0827,23.35,80,100,0.3,VE,1696218870
19,tindouf,27.6711,-8.1474,24.25,22,0,2.06,DZ,1696218870
20,jieshi,22.8134,115.8257,28.68,72,45,4.6,CN,1696218831
21,chonchi,-42.6128,-73.8092,5.07,98,83,0.64,CL,1696218871
22,bredasdorp,-34.5322,20.0403,9.92,80,2,2.28,ZA,1696218703
23,carbonear,47.7332,-53.2148,13.4,90,5,4.29,CA,1696218777
24,ribeira grande,38.5167,-28.7,19.32,74,99,1.79,PT,1696218730
25,bikenibeu village,1.3673,173.1241,31.98,66,20,2.06,KI,1696218743
26,grytviken,-54.2811,-36.5092,2.23,95,33,4.72,GS,1696218456
27,utrik,11.2278,169.8474,28.67,78,92,5.84,MH,1696218697
28,tarauaca,-8.1614,-70.7656,22.7,98,100,0.81,BR,1696218713
29,g'uzor,38.6214,66.2522,12.02,23,47,0.02,UZ,1696218871
30,tiksi,71.6872,128.8694,-4.57,75,13,0.85,RU,1696218714
31,barrancas,10.9576,-72.7877,24.64,97,95,0.53,CO,1696218871
32,mount pearl,47.5166,-52.7813,12.3,90,40,7.72,CA,1696218871
33,puerto natales,-51.7236,-72.4875,0.76,87,96,2.24,CL,1696218708
34,dudinka,69.4058,86.1778,-10.21,90,57,3.42,RU,1696218872
35,pachino,36.7186,15.0907,21.86,64,0,2.76,IT,1696218872
36,terrace,54.5163,-128.6035,9.95,93,100,1.54,CA,1696218689
37,buka,40.8108,69.1986,18.39,30,62,1.67,UZ,1696218872
38,urangan,-25.3,152.9,23.83,55,0,2.72,AU,1696218725
39,ilulissat,69.2167,-51.1,-1.99,64,1,3.09,GL,1696218703
40,longyearbyen,78.2186,15.6401,-3.09,63,75,9.26,SJ,1696218490
41,bomdila,27.25,92.4,21.19,63,63,2.77,IN,1696218872
42,teruel,40.6667,-0.6667,15.86,48,7,2.3,ES,1696218872
43,benghazi,32.1167,20.0667,23.47,66,1,5.56,LY,1696218872
44,sur,22.5667,59.5289,31.12,57,47,3.74,OM,1696218707
45,colonia,50.9333,6.95,17.46,85,0,1.03,DE,1696218734
46,saint-pierre,-21.3393,55.4781,25.32,50,0,2.06,RE,1696218790
47,tsiombe,-25.3,45.4833,21.08,82,68,4.9,MG,1696218873
48,salinas,36.6777,-121.6555,15.79,89,40,2.06,US,1696218788
49,tual,-5.6667,132.75,26.47,85,64,5.29,ID,1696218747
50,vilyuchinsk,52.9306,158.4028,11.15,92,100,7.58,RU,1696218704
51,bodo,67.28,14.405,6.02,93,40,5.66,NO,1696218873
52,port mathurin,-19.6833,63.4167,23.13,80,10,6.75,MU,1696218703
53,geraldton,-28.7667,114.6,19.23,48,100,8.75,AU,1696218567
54,taltal,-25.4,-70.4833,15.18,80,25,0.8,CL,1696218765
55,bilibino,68.0546,166.4372,-1.14,95,100,1.51,RU,1696218705
56,puerto ayora,-0.7393,-90.3518,21.97,100,95,1.34,EC,1696218701
57,eyl,7.9803,49.8164,26.81,78,23,5.99,SO,1696218707
58,stanley,54.868,-1.6985,12.1,95,0,0.51,GB,1696218710
59,malanje,-9.5402,16.341,18.72,88,62,0.81,AO,1696218874
60,uliastay,47.7417,96.8444,7.71,54,7,2.29,MN,1696218874
61,port-aux-francais,-49.35,70.2167,1.95,84,97,20.41,TF,1696218699
62,susuman,62.7833,148.1667,1.1,73,16,1.34,RU,1696218730
63,saint-joseph,-21.3667,55.6167,24.71,68,0,0.22,RE,1696218721
64,east london,-33.0153,27.9116,13.52,76,0,3.09,ZA,1696218750
65,west island,-12.1568,96.8225,27.99,65,75,6.17,CC,1696218710
66,wajir,1.7471,40.0573,23.98,69,0,3.6,KE,1696218874
67,talnakh,69.4865,88.3972,-10.44,94,87,3.93,RU,1696218725
68,guerrero negro,27.9769,-114.0611,19.81,80,24,7.02,MX,1696218740
69,wailua homesteads,22.0669,-159.378,29.24,82,40,6.69,US,1696218720
70,khandyga,62.6667,135.6,7.87,82,99,1.92,RU,1696218763
71,duekoue,6.7472,-7.3496,22.29,99,100,0.77,CI,1696218875
72,pons,45.5799,-0.5478,19.65,77,0,2.06,FR,1696218875
73,timimoun,29.2639,0.231,22.21,33,0,6.69,DZ,1696218875
74,yellowknife,62.456,-114.3525,8.56,100,100,1.34,CA,1696218705
75,thompson,55.7435,-97.8558,3.09,93,100,3.6,CA,1696218713
76,saudarkrokur,65.7461,-19.6394,5.51,90,100,4.53,IS,1696218775
77,barah,13.7,30.3667,28.17,55,75,3.86,SD,1696218875
78,howrah,22.5892,88.3103,27.0,94,75,2.57,IN,1696218715
79,alice springs,-23.7,133.8833,36.75,12,18,7.72,AU,1696218602
80,jamestown,42.097,-79.2353,17.8,89,20,2.06,US,1696218496
81,college,64.8569,-147.8028,5.81,85,100,2.57,US,1696218698
82,vilyuysk,63.7553,121.6247,9.52,72,100,3.08,RU,1696218781
83,roosevelt,33.9668,-103.4505,21.93,63,70,4.41,US,1696218876
84,kiffa,16.6166,-11.4045,31.61,16,100,2.22,MR,1696218876
85,pangoa,-12.1167,-73.0,20.89,95,100,1.07,PE,1696218876
86,hawaiian paradise park,19.5933,-154.9731,26.73,81,100,3.09,US,1696218705
87,tamanrasset,22.785,5.5228,20.95,28,0,2.06,DZ,1696218783
88,ushuaia,-54.8,-68.3,0.81,80,0,8.23,AR,1696218423
89,bethel,41.3712,-73.414,18.68,86,0,2.06,US,1696218704
90,tumut,-35.3,148.2167,28.63,29,66,2.26,AU,1696218876
91,diego de almagro,-26.3667,-70.05,14.75,51,28,0.35,CL,1696218877
92,yermakovskoye,53.2831,92.4003,7.19,84,91,0.45,RU,1696218877
93,archangelos,36.2149,28.1149,22.39,63,0,5.75,GR,1696218877
94,qaqortoq,60.7167,-46.0333,1.93,77,100,1.43,GL,1696218740
95,arica,-18.475,-70.3042,19.13,77,100,3.09,CL,1696218877
96,iskateley,67.6803,53.1512,10.57,96,89,3.58,RU,1696218716
97,yafran,32.0633,12.5286,16.78,79,0,1.99,LY,1696218877
98,tralee,52.2704,-9.7026,10.66,96,100,2.3,IE,1696218638
99,bengkulu,-3.8004,102.2655,27.88,62,100,4.61,ID,1696218742
100,aroma,15.8167,36.1333,28.58,47,0,3.62,SD,1696218877
101,anadyr,64.75,177.4833,4.28,48,0,4.92,RU,1696218699
102,papatowai,-46.5619,169.4708,5.86,92,100,12.38,NZ,1696218697
103,mil'kovo,55.6078,37.7956,9.08,73,93,2.71,RU,1696218784
104,smolenskaya,44.7887,38.8018,16.46,65,100,0.89,RU,1696218878
105,halden,59.1226,11.3871,14.24,97,100,3.32,NO,1696218878
106,invercargill,-46.4,168.35,6.68,87,100,6.71,NZ,1696218716
107,ilabaya,-17.4208,-70.5133,18.77,46,21,0.17,PE,1696218878
108,queenstown,-31.8976,26.8753,6.47,86,13,0.82,ZA,1696218725
109,fort mcmurray,56.7268,-111.381,8.77,66,20,4.12,CA,1696218878
110,patacamaya,-17.2333,-67.9167,9.31,72,100,3.46,BO,1696218878
111,mount gambier,-37.8333,140.7667,25.76,33,0,5.56,AU,1696218767
112,ust-nera,64.5667,143.2,1.79,56,29,2.68,RU,1696218701
113,naliya,23.2667,68.8333,29.69,41,100,2.58,IN,1696218879
114,san antonio de pale,-1.4014,5.6325,25.08,84,90,4.78,GQ,1696218762
115,isafjordur,66.0755,-23.124,4.84,95,100,11.06,IS,1696218716
116,gurun,5.8172,100.4738,29.9,63,99,1.99,MY,1696218879
117,labytnangi,66.6572,66.4183,7.81,97,100,4.97,RU,1696218725
118,olonkinbyen,70.9221,-8.7187,-0.02,88,100,7.85,SJ,1696218715
119,gebeit,21.0667,36.3167,26.74,47,5,2.09,SD,1696218712
120,badger,64.8,-147.5333,5.76,85,40,2.57,US,1696218710
121,gunnison,38.7,-107.0673,11.47,42,98,1.28,US,1696218879
122,ancud,-41.8697,-73.8203,6.16,90,98,1.37,CL,1696218706
123,sarankhola,22.3082,89.7897,30.11,71,42,2.67,BD,1696218879
124,olyokminsk,60.3736,120.4264,4.99,73,100,5.36,RU,1696218879
125,bay harbor,30.1471,-85.6146,23.04,73,0,2.57,US,1696218880
126,the pas,53.8251,-101.2541,7.01,87,100,2.57,CA,1696218880
127,kavieng,-2.5744,150.7967,28.96,73,72,1.62,PG,1696218880
128,pemba,-12.974,40.5178,23.39,94,20,1.54,MZ,1696218880
129,placer,39.0666,-120.7677,11.91,84,53,0.45,US,1696218880
130,kalemie,-5.9475,29.1947,22.86,75,21,1.83,CD,1696218880
131,chibougamau,49.9168,-74.3659,10.68,69,6,1.86,CA,1696218746
132,aghajari,30.7006,49.8315,22.12,35,0,2.06,IR,1696218880
133,st. john's,47.5649,-52.7093,12.76,90,40,7.72,CA,1696218756
134,margaret river,-33.95,115.0667,13.39,49,89,10.26,AU,1696218712
135,oyama,36.3,139.8,24.25,50,89,2.68,JP,1696218880
136,igarka,67.4667,86.5833,-1.29,68,32,5.36,RU,1696218881
137,georgetown,5.4112,100.3354,32.19,76,20,3.6,MY,1696218706
138,arteche,12.2645,125.4048,32.07,61,99,3.45,PH,1696218712
139,afaahiti,-17.75,-149.2833,26.93,87,13,6.85,PF,1696218721
140,loures,38.8309,-9.1685,21.34,63,20,1.34,PT,1696218881
141,al harithah,30.7186,47.7208,19.98,40,0,3.09,IQ,1696218881
142,ulsteinvik,62.3432,5.8487,13.75,85,100,4.92,NO,1696218791
143,iqaluit,63.7506,-68.5145,2.85,93,100,3.09,CA,1696218709
144,gannan,47.9147,123.5031,17.6,39,0,0.67,CN,1696218881
145,lamballe,48.4676,-2.5144,16.67,95,91,0.88,FR,1696218881
146,lata,40.1629,-8.3327,15.04,62,0,0.78,PT,1696218882
147,port augusta,-32.5,137.7667,36.7,14,19,9.78,AU,1696218453
148,cabo san lucas,22.8909,-109.9124,30.61,73,0,6.69,MX,1696218308
149,harstad,68.799,16.5293,5.45,95,100,1.34,NO,1696218777
150,quellon,-43.1167,-73.6167,4.13,87,16,0.73,CL,1696218882
151,sola,-13.8833,167.55,27.37,74,100,5.14,VU,1696218779
152,manismata,-2.4667,111.0333,34.18,36,100,2.75,ID,1696218747
153,sitka,57.0531,-135.33,11.94,82,100,4.12,US,1696218710
154,khalkhal,37.6189,48.5258,14.12,54,100,1.92,IR,1696218882
155,ishigaki,24.3448,124.1572,28.07,83,75,9.26,JP,1696218882
156,ta`u,-14.2336,-169.5144,26.61,79,51,8.98,AS,1696218719
157,kununurra,-15.7667,128.7333,36.99,34,7,2.57,AU,1696218883
158,nagqu,31.5,92.0,7.15,73,100,4.13,CN,1696218724
159,enewetak,11.3474,162.3373,28.92,75,94,4.32,MH,1696218743
160,polyarnyy,69.1989,33.4478,3.32,78,100,7.87,RU,1696218701
161,nuku'alofa,-21.1333,-175.2,23.19,53,20,8.23,TO,1696218883
162,brookings,44.3114,-96.7984,25.19,53,0,6.69,US,1696218883
163,valparaiso,-33.0393,-71.6273,14.71,73,75,1.03,CL,1696218705
164,gambiran satu,-8.3939,114.1464,31.04,48,54,3.9,ID,1696218883
165,melo,-32.3667,-54.1833,7.4,96,0,2.8,UY,1696218883
166,ariquemes,-9.9133,-63.0408,27.0,60,98,0.54,BR,1696218884
167,port elizabeth,-33.918,25.5701,15.16,81,0,5.66,ZA,1696218704
168,taoudenni,22.6783,-3.9836,31.02,14,25,4.21,ML,1696218884
169,vadso,70.0744,29.7487,1.49,80,0,4.12,NO,1696218709
170,margate,51.3813,1.3862,16.06,94,98,0.45,GB,1696218772
171,kapuskasing,49.4169,-82.4331,17.05,88,100,3.09,CA,1696218601
172,egilsstadir,65.2653,-14.3948,5.95,93,100,10.8,IS,1696218884
173,kidal,18.4411,1.4078,30.79,27,58,4.59,ML,1696218772
174,rehoboth,-23.3167,17.0833,17.52,17,0,0.99,NA,1696218884
175,viedma,-40.8135,-62.9967,14.95,55,100,7.58,AR,1696218884
176,vershino-darasunskiy,52.35,115.5167,12.59,41,100,3.79,RU,1696218884
177,launceston,-41.45,147.1667,17.8,45,0,10.8,AU,1696218885
178,caleta de carquin,-11.0925,-77.6267,18.87,87,65,5.15,PE,1696218776
179,caluula,11.9661,50.7569,27.6,73,38,0.8,SO,1696218885
180,trincomalee,8.5711,81.2335,30.08,63,90,8.16,LK,1696218760
181,port-vila,-17.7338,168.3219,24.66,66,88,8.34,VU,1696218841
182,labasa,-16.4167,179.3833,25.64,59,91,6.12,FJ,1696218770
183,oberammergau,47.5981,11.0669,12.66,68,33,2.28,DE,1696218885
184,santa cruz,-17.8,-63.1667,24.7,61,98,2.06,BO,1696218607
185,saipan,15.1355,145.701,30.39,84,40,6.69,MP,1696218724
186,gadzhiyevo,69.2551,33.3362,3.11,76,99,7.34,RU,1696218706
187,coquimbo,-29.9533,-71.3436,13.85,76,100,1.03,CL,1696218718
188,coyuca de benitez,17.0333,-100.0667,26.37,90,96,1.47,MX,1696218885
189,sarupathar,26.1984,93.8094,28.41,83,91,1.52,IN,1696218886
190,visby,57.6409,18.296,12.12,93,20,2.06,SE,1696218886
191,holualoa,19.6228,-155.9522,26.91,78,75,5.66,US,1696218755
192,mount darwin,-16.7725,31.5838,19.26,79,6,4.77,ZW,1696218886
193,kodiak,57.79,-152.4072,11.73,66,75,0.0,US,1696218708
194,constantia,44.1833,28.65,15.39,54,47,8.67,RO,1696218646
195,lihue,21.9789,-159.3672,29.58,77,40,6.69,US,1696218711
196,limulunga,-15.0969,23.1376,20.8,43,16,1.86,ZM,1696218886
197,san borja,-14.8167,-66.85,25.53,79,99,2.08,BO,1696218886
198,envira,-7.3,-70.2167,22.53,98,100,0.62,BR,1696218886
199,atafu village,-8.5421,-172.5159,28.93,70,28,3.73,TK,1696218706
200,at taj,24.2049,23.2857,24.99,34,100,3.55,LY,1696218790
201,fortuna,40.5982,-124.1573,12.74,93,100,2.06,US,1696218780
202,sisimiut,66.9395,-53.6735,0.21,69,81,3.26,GL,1696218887
203,lichinga,-13.3128,35.2406,18.05,68,20,5.81,MZ,1696218887
204,yuzhno-kurilsk,44.0306,145.8556,17.99,57,4,5.13,RU,1696218703
205,sciacca,37.5082,13.0881,20.57,55,0,1.71,IT,1696218887
206,remire-montjoly,4.9167,-52.2667,27.02,83,20,1.03,GF,1696218714
207,scarborough,54.2797,-0.4044,13.76,90,100,0.45,GB,1696218825
208,dunedin,-45.8742,170.5036,7.67,78,89,13.86,NZ,1696218887
209,meadow lakes,61.6247,-149.6011,8.19,95,100,0.0,US,1696218887
210,la passe,45.5549,-0.8967,18.32,64,9,3.89,FR,1696218739
211,antonio enes,-16.2325,39.9086,22.64,83,4,1.43,MZ,1696218766
212,yushu,44.8,126.5333,18.09,41,0,3.78,CN,1696218888
213,trinidad,-14.8333,-64.9,27.61,59,100,2.29,BO,1696218888
214,haiku-pauwela,20.9219,-156.3051,28.01,67,40,9.77,US,1696218737
215,kayangel,8.0823,134.7173,28.42,74,92,1.24,PW,1696218888
216,turtas,58.9417,69.1325,10.04,79,36,5.17,RU,1696218709
217,kem',64.9555,34.5793,5.14,86,70,3.3,RU,1696218888
218,quillacollo,-17.4,-66.2833,20.04,42,40,2.57,BO,1696218888
219,kyzyl,51.7,94.45,6.12,60,1,1.79,RU,1696218888
220,port alfred,-33.5906,26.891,12.32,87,2,1.79,ZA,1696218722
221,dadukou,26.5479,101.7054,29.23,58,57,1.4,CN,1696218888
222,petropavlovsk-kamchatsky,53.0452,158.6483,10.33,88,100,7.0,RU,1696218659
223,tolanaro,-25.0319,46.9987,23.04,60,20,3.09,MG,1696218735
224,alofi,-19.0595,-169.9187,23.94,64,75,9.26,NU,1696218889
225,tuban,-6.8976,112.0649,32.01,47,35,2.44,ID,1696218777
226,uturoa,-16.7333,-151.4333,25.9,82,15,6.76,PF,1696218780
227,guajara mirim,-10.7828,-65.3394,24.7,87,77,0.75,BR,1696218889
228,huazhou,21.6333,110.5833,30.83,66,69,5.21,CN,1696218889
229,lobujya,27.95,86.8167,2.59,98,100,2.42,NP,1696218795
230,singkil,-7.9855,111.4161,33.15,36,7,6.24,ID,1696218889
231,stiens,53.2623,5.7577,16.99,90,75,2.57,NL,1696218889
232,pisco,-13.7,-76.2167,18.34,88,0,7.2,PE,1696218785
233,lincoln city,44.9582,-124.0179,12.61,91,58,0.45,US,1696218890
234,flying fish cove,-10.4217,105.6791,26.82,69,40,7.2,CX,1696218752
235,bondoukou,8.0333,-2.8,21.69,99,96,2.42,CI,1696218890
236,tazacorte,28.629,-17.9293,22.54,83,20,4.12,ES,1696218715
237,chinde,26.8418,88.0763,23.3,65,94,1.84,NP,1696218890
238,mountain home,43.133,-115.6912,9.68,95,100,2.57,US,1696218851
239,oriximina,-1.7656,-55.8661,26.9,53,46,1.5,BR,1696218890
240,nuuk,64.1835,-51.7216,1.6,86,100,2.06,GL,1696218709
241,kingston,17.997,-76.7936,28.53,85,20,3.6,JM,1696218431
242,altay,47.8667,88.1167,12.43,41,22,1.34,CN,1696218752
243,annau,37.8876,58.516,14.72,41,1,1.03,TM,1696218890
244,punta arenas,-53.15,-70.9167,1.06,86,20,6.69,CL,1696218701
245,sasebo,33.1592,129.7228,26.69,47,75,6.82,JP,1696218891
246,kinrooi,51.1476,5.7385,18.13,85,40,1.54,BE,1696218891
247,mana,5.6592,-53.7767,26.59,84,74,6.1,GF,1696218720
248,weligama,5.9667,80.4167,27.58,77,86,2.93,LK,1696218611
249,vila franca do campo,37.7167,-25.4333,20.23,99,79,3.72,PT,1696218728
250,praia da vitoria,38.7333,-27.0667,18.75,88,20,3.67,PT,1696218756
251,mao,39.8885,4.2658,21.31,100,20,2.57,ES,1696218891
252,qingyuan,23.7,113.0333,29.99,72,26,1.62,CN,1696218623
253,lebu,-37.6167,-73.65,8.04,84,87,1.19,CL,1696218704
254,grand-bassam,5.2118,-3.7388,25.98,91,69,2.2,CI,1696218891
255,kirkwood,38.5834,-90.4068,23.1,73,20,2.57,US,1696218860
256,treasure island,27.7692,-82.769,26.13,79,0,5.66,US,1696218892
257,george town,5.4112,100.3354,32.19,76,20,3.6,MY,1696218706
258,hadibu,12.65,54.0333,26.9,79,21,2.13,YE,1696218761
259,klyuchi,52.2667,79.1667,9.62,61,0,3.74,RU,1696218698
260,pavlodar,52.3,76.95,6.89,93,100,4.0,KZ,1696218892
261,walvis bay,-22.9575,14.5053,11.72,93,100,3.6,NA,1696218753
262,port lincoln,-34.7333,135.8667,25.4,38,0,5.2,AU,1696218736
263,khovd,48.0056,91.6419,8.31,54,4,2.13,MN,1696218892
264,udachny,66.4167,112.4,-0.86,92,100,7.56,RU,1696218716
265,el hamma,33.8915,9.7963,17.62,77,2,2.03,TN,1696218892
266,mammoth lakes,37.6485,-118.9721,2.4,94,100,2.06,US,1696218893
267,manaure,11.7751,-72.4445,28.14,82,90,3.95,CO,1696218893
268,bel ombre,-4.6167,55.4167,27.91,78,40,6.69,SC,1696218893
269,kudahuvadhoo,2.6708,72.8944,27.96,76,99,5.33,MV,1696218893
270,douglas,41.3,-96.167,25.44,49,0,4.63,US,1696218893
271,bathurst,-33.4166,149.5806,31.09,27,27,1.34,AU,1696218893
272,trairi,-3.2778,-39.2689,24.94,84,51,4.19,BR,1696218893
273,alo,7.4178,6.7371,23.45,98,100,1.19,NG,1696218893
274,saldanha,-33.0117,17.9442,14.29,58,0,3.28,ZA,1696218725
275,plympton,50.3907,-4.0602,16.93,98,100,1.59,GB,1696218893
276,sabang,5.8933,95.3214,27.95,77,24,6.19,ID,1696218789
277,ambositra,-20.5167,47.25,19.15,57,28,1.19,MG,1696218894
278,galesong,-5.3166,119.3661,34.01,61,76,4.75,ID,1696218894
279,ropar,30.9664,76.5331,28.2,42,0,2.22,IN,1696218894
280,ola,59.5833,151.2833,12.86,67,31,0.59,RU,1696218728
281,boa vista,2.8197,-60.6733,29.99,58,0,2.57,BR,1696218698
282,coxcatlan,18.2667,-97.15,19.19,89,17,1.42,MX,1696218894
283,khandud,36.9513,72.318,8.29,46,6,1.15,AF,1696218894
284,broken hill,-31.95,141.4333,35.17,13,68,14.01,AU,1696218758
285,new norfolk,-42.7826,147.0587,22.18,18,30,4.24,AU,1696218761
286,general acha,-37.377,-64.6043,16.77,32,100,7.81,AR,1696218894
287,tazovsky,67.4667,78.7,1.17,98,100,7.98,RU,1696218770
288,al jawf,29.5,38.75,21.8,63,20,4.49,SA,1696218750
289,suihua,46.6406,126.9969,15.47,49,4,2.31,CN,1696218895
290,tvoroyri,61.5556,-6.8111,10.48,88,100,11.33,FO,1696218709
291,kamina,-8.7386,24.9906,19.17,83,12,0.25,CD,1696218895
292,aasiaat,68.7098,-52.8699,-8.02,85,18,3.94,GL,1696218704
293,luderitz,-26.6481,15.1594,15.17,78,0,2.67,NA,1696218730
294,kupang,-10.1667,123.5833,34.32,43,40,4.63,ID,1696218895
295,pago pago,-14.2781,-170.7025,25.55,94,100,9.77,AS,1696218895
296,marathon,44.9,-89.7668,22.97,82,0,3.09,US,1696218895
297,torghay,49.6339,63.4981,13.62,54,24,5.17,KZ,1696218895
298,aral,40.5156,81.2636,21.11,22,8,1.02,CN,1696218709
299,kangding,30.0513,101.9603,21.25,66,38,1.99,CN,1696218896
300,hamilton,39.1834,-84.5333,21.11,82,0,0.45,US,1696218682
301,montmorillon,46.4167,0.6667,12.94,65,45,3.0,FR,1696218896
302,antofagasta,-23.65,-70.4,15.6,85,38,2.73,CL,1696218739
303,pyu,18.4833,96.4333,26.72,91,93,4.22,MM,1696218896
304,santa maria,-29.6842,-53.8069,9.61,93,0,0.51,BR,1696218793
305,ortona,42.3496,14.4039,21.02,57,0,2.6,IT,1696218896
306,tippi,7.2,35.45,18.11,83,100,1.46,ET,1696218896
307,merizo village,13.2658,144.6691,31.31,86,11,5.69,GU,1696218896
308,mont-laurier,46.5501,-75.4993,8.79,74,75,0.79,CA,1696218896
309,aykhal,66.0,111.5,0.04,98,100,7.15,RU,1696218897
310,yaren,-0.5472,166.916,29.25,72,4,2.28,NR,1696218897
311,isangel,-19.55,169.2667,27.06,50,75,6.17,VU,1696218702
312,svetlyy,54.675,20.1347,11.87,85,14,3.53,RU,1696218897
313,arraial do cabo,-22.9661,-42.0278,20.99,97,99,2.01,BR,1696218753
314,carnarvon,-24.8667,113.6333,21.96,58,59,7.66,AU,1696218764
315,rabaul,-4.1967,152.1721,28.12,79,52,3.32,PG,1696218828
316,filadelfia,39.9523,-75.1638,20.34,86,0,1.54,US,1696218891
317,guercif,34.2257,-3.3536,21.83,64,0,1.48,MA,1696218897
318,laguna,38.421,-121.4238,20.17,58,0,0.0,US,1696218744
319,maxixe,-23.8597,35.3472,20.9,56,75,7.2,MZ,1696218897
320,zabol,32.25,67.25,15.07,16,0,2.13,AF,1696218898
321,namibe,-15.1961,12.1522,17.26,86,18,1.6,AO,1696218738
322,sanford,28.8006,-81.2731,25.16,90,75,3.6,US,1696218712
323,tura,25.5198,90.2201,27.74,81,74,2.06,IN,1696218707
324,hammerfest,70.6634,23.6821,2.25,93,75,4.12,NO,1696218898
325,aswan,24.0934,32.907,28.61,36,0,5.14,EG,1696218898
326,wulingyuan,29.3494,110.5441,19.43,87,100,1.35,CN,1696218898
327,airali,44.767,7.3219,20.28,88,25,0.75,IT,1696218898
328,illizi,26.4833,8.4667,23.89,35,0,4.32,DZ,1696218898
329,lhasa,29.65,91.1,17.9,43,76,2.41,CN,1696218898
330,bereeda,11.8704,51.0579,27.3,74,46,1.12,SO,1696218898
331,kavalerovo,44.2661,135.0572,13.64,94,70,2.24,RU,1696218899
332,darovskoy,58.77,47.9564,8.9,92,69,3.65,RU,1696218899
333,daru,-9.0763,143.2092,27.37,77,88,6.81,PG,1696218899
334,shimoda,34.6667,138.95,25.2,66,54,5.53,JP,1696218717
335,masterton,-40.9597,175.6575,13.27,90,99,9.65,NZ,1696218899
336,fortaleza,-3.7227,-38.5247,27.34,78,0,3.6,BR,1696218845
337,burang,30.25,81.1667,9.27,52,8,3.28,CN,1696218899
338,moses lake,47.1301,-119.2781,17.2,42,0,1.54,US,1696218899
339,santa sylvina,-27.8326,-61.1375,18.36,53,22,4.77,AR,1696218899
340,coahuayana de hidalgo,18.7,-103.6583,27.08,94,98,0.65,MX,1696218788
341,tayshet,55.9342,98.0044,3.72,47,100,3.59,RU,1696218900
342,kralendijk,12.15,-68.2667,29.99,79,82,2.57,BQ,1696218900
343,quatre cocos,-20.2078,57.7625,24.49,77,15,3.68,MU,1696218900
344,malakal,9.5334,31.6605,23.84,87,90,0.58,SS,1696218900
345,padang,-0.9492,100.3543,30.03,74,95,3.58,ID,1696218900
346,fort bragg,35.139,-79.006,19.33,90,0,0.45,US,1696218822
347,kolwezi,-10.7148,25.4667,19.85,49,46,2.03,CD,1696218900
348,kalmunai,7.4167,81.8167,28.84,70,95,6.05,LK,1696218704
349,el calafate,-50.3408,-72.2768,2.93,67,56,2.53,AR,1696218787
350,mili,6.0815,171.735,29.03,70,96,0.97,MH,1696218900
351,arrifes,37.7667,-25.7,19.14,73,20,5.66,PT,1696218901
352,ceerigaabo,10.6162,47.368,19.5,27,5,0.88,SO,1696218901
353,itarantim,-15.6597,-40.0656,17.98,95,50,0.77,BR,1696218901
354,shakawe,-18.3667,21.85,21.32,20,34,1.25,BW,1696218901
355,ixtapa,20.7,-105.2,28.46,91,96,0.45,MX,1696218901
356,san felipe,10.3399,-68.7425,23.81,93,91,0.98,VE,1696218901
357,rongelap,11.1635,166.8941,28.7,77,58,5.89,MH,1696218756
358,nowy dwor gdanski,54.2131,19.1177,13.87,93,6,2.21,PL,1696218901
359,san jose del cabo,23.0589,-109.6977,30.6,71,20,2.57,MX,1696218902
360,buala,-8.145,159.5921,29.61,72,92,4.8,SB,1696218902
361,lompoc,34.6391,-120.4579,15.56,84,0,3.58,US,1696218750
362,mo i rana,66.3128,14.1428,4.07,91,20,0.0,NO,1696218902
363,bam,29.106,58.357,26.58,17,0,0.52,IR,1696218727
364,acarau,-2.8856,-40.12,25.22,85,21,5.99,BR,1696218794
365,kiunga,-6.1219,141.2906,28.27,86,72,1.44,PG,1696218902
366,lobito,-12.3481,13.5456,22.62,82,50,1.87,AO,1696218902
367,lazaro cardenas,17.9583,-102.2,27.67,87,81,1.11,MX,1696218723
368,nago,26.5881,127.9761,30.25,74,55,7.0,JP,1696218903
369,guozhen,34.3659,107.359,13.63,95,100,0.65,CN,1696218903
370,beitbridge,-22.2167,30.0,15.87,73,31,10.07,ZW,1696218903
371,dhanwar,24.4167,85.9833,27.76,78,47,6.66,IN,1696218903
372,fangshan,39.6983,115.9925,22.75,37,100,3.36,CN,1696218903
373,crane,31.3974,-102.3501,24.63,63,8,7.9,US,1696218718
374,codrington,-38.2667,141.9667,24.0,42,0,7.56,AU,1696218740
375,kirando,-7.4167,30.6,25.01,49,28,1.86,TZ,1696218904
376,saynshand,44.8824,110.1163,20.46,15,96,6.23,MN,1696218904
377,kirensk,57.7853,108.1119,2.16,62,100,4.96,RU,1696218745
378,albertina,-22.2008,-46.6158,18.11,95,80,0.77,BR,1696218786
379,saint-philippe,-21.3585,55.7679,23.77,68,0,2.05,RE,1696218904
380,severo-yeniseyskiy,60.3725,93.0408,-3.01,87,100,3.58,RU,1696218904
381,fale old settlement,-9.3852,-171.2468,27.37,80,23,5.7,TK,1696218743
382,kula,38.5473,28.6498,13.96,85,67,1.63,TR,1696218904
383,alaghsas,17.0187,8.0168,27.44,41,59,3.36,NE,1696218905
384,kristiansund,63.1115,7.732,11.36,87,75,4.63,NO,1696218905
385,commentry,46.2921,2.7416,15.89,61,34,2.36,FR,1696218905
386,puerto aysen,-45.4,-72.7,3.72,99,90,1.12,CL,1696218905
387,kalampaka,39.7044,21.6269,16.51,62,6,2.42,GR,1696218905
388,felixstowe,51.9637,1.3511,16.16,90,100,0.89,GB,1696218905
389,amos,48.5669,-78.1162,12.5,76,45,1.85,CA,1696218778
390,galvez,-32.0293,-61.221,13.58,57,0,3.87,AR,1696218700
391,pacasmayo,-7.4006,-79.5714,18.56,87,11,4.73,PE,1696218905
392,mckinleyville,40.9465,-124.1006,12.66,87,0,2.57,US,1696218906
393,hotan,37.0997,79.9269,20.59,24,7,1.84,CN,1696218744
394,erwin,36.1451,-82.4168,18.47,84,11,1.58,US,1696218682
395,dano,11.15,-3.0667,24.99,83,88,2.36,BF,1696218906
396,sao gabriel da cachoeira,-0.1303,-67.0892,24.59,85,86,0.9,BR,1696218750
397,dagua,3.6569,-76.6886,23.28,97,100,0.77,CO,1696218906
398,horncastle,53.2077,-0.1172,15.92,100,75,2.57,GB,1696218906
399,buarcos,40.166,-8.8768,18.5,80,0,1.93,PT,1696218906
400,ketchikan,55.3422,-131.6461,11.26,93,100,6.17,US,1696218741
401,mukalla,14.5425,49.1242,27.44,76,50,1.58,YE,1696218759
402,petrozavodsk,61.7849,34.3469,9.17,85,100,4.92,RU,1696218720
403,tucuma,-0.1833,-50.05,26.21,82,27,3.34,BR,1696218724
404,ust-tsilma,65.441,52.1498,11.45,94,88,2.24,RU,1696218907
405,uruacu,-14.5247,-49.1408,29.65,36,91,0.72,BR,1696218907
406,yuanping,38.7153,112.7575,17.16,40,100,1.53,CN,1696218701
407,romblon,12.5751,122.2708,28.53,80,100,9.68,PH,1696218907
408,saint-francois,46.4154,3.9054,10.38,100,20,1.03,FR,1696218907
409,santa ines,-3.6667,-45.38,24.53,79,21,2.4,BR,1696218788
410,masindi,1.6744,31.715,18.26,93,91,0.75,UG,1696218907
411,nemuro,43.3236,145.575,18.09,65,0,4.77,JP,1696218907
412,owando,-0.4819,15.8999,22.41,96,91,1.2,CG,1696218907
413,n'zeto,-7.2312,12.8666,23.44,88,82,1.11,AO,1696218782
414,bojnurd,37.4747,57.329,11.97,32,20,0.0,IR,1696218908
415,khanty-mansiysk,61.0042,69.0019,8.06,87,75,6.0,RU,1696218908
416,cidreira,-30.1811,-50.2056,12.35,73,0,1.83,BR,1696218590
417,wakkanai,45.4094,141.6739,17.99,66,75,9.77,JP,1696218908
418,barclayville,4.6797,-8.2339,24.52,91,99,2.67,LR,1696218908
419,prince rupert,54.3161,-130.3201,11.83,91,100,9.77,CA,1696218908
420,saint-louis,16.3333,-15.0,26.8,66,14,3.95,SN,1696218908
421,tinogasta,-28.0632,-67.5649,15.41,35,2,0.99,AR,1696218643
422,huai khot,15.2909,99.6166,31.46,63,33,0.29,TH,1696218909
423,grand falls-windsor,48.9332,-55.6649,12.5,87,38,1.32,CA,1696218909
424,vila velha,-20.3297,-40.2925,22.19,88,0,5.14,BR,1696218909
425,pirallahi,40.4723,50.333,21.08,60,68,3.72,AZ,1696218909
426,usinsk,65.9939,57.5281,9.48,94,88,7.15,RU,1696218909
427,ardestan,33.3761,52.3694,23.47,17,5,1.49,IR,1696218909
428,tympaki,35.0729,24.7685,23.2,61,0,0.89,GR,1696218909
429,piti village,13.4626,144.6933,31.49,78,20,6.69,GU,1696218909
430,karratha,-20.7377,116.8463,33.67,18,0,7.04,AU,1696218781
431,ust'-kulom,61.6864,53.6902,10.78,81,89,4.87,RU,1696218909
432,tateyama,34.9833,139.8667,23.71,61,85,5.85,JP,1696218910
433,papao,-17.75,-149.55,27.82,84,5,7.19,PF,1696218910
434,ust'-kut,56.7938,105.7672,-1.42,70,100,4.02,RU,1696218910
435,itamaraca,-7.7478,-34.8256,26.03,78,10,2.45,BR,1696218910
436,nebraska city,40.6767,-95.8592,25.3,56,0,3.09,US,1696218910
437,xinyuan,37.3,99.0,12.04,27,72,2.68,CN,1696218728
438,montepuez,-13.1256,38.9997,19.99,83,0,1.31,MZ,1696218702
439,val-d'or,48.1002,-77.7828,10.05,81,0,1.03,CA,1696218732
440,greymouth,-42.4667,171.2,9.56,83,99,10.28,NZ,1696218511
441,koulamoutou,-1.1303,12.4736,21.79,99,92,0.65,GA,1696218650
442,hithadhoo,-0.6,73.0833,28.06,72,9,6.44,MV,1696218911
443,nar'yan-mar,67.6713,53.087,10.62,96,89,3.58,RU,1696218775
444,nogliki,51.8333,143.1667,10.75,96,100,11.18,RU,1696218911
445,san patricio,28.017,-97.5169,27.91,80,4,4.78,US,1696218722
446,rawson,-43.3002,-65.1023,11.32,66,95,3.74,AR,1696218911
447,tortoli,39.9256,9.6572,19.9,60,0,2.06,IT,1696218911
448,whitehorse,60.7161,-135.0538,7.43,77,40,4.63,CA,1696218697
449,lautoka,-17.6167,177.4667,26.92,57,40,6.17,FJ,1696218740
450,jinxiang,27.4327,120.6062,25.62,62,5,6.59,CN,1696218911
451,awjilah,29.1081,21.2869,20.4,71,0,4.28,LY,1696218911
452,midvagur,62.0511,-7.1939,10.46,93,75,5.14,FO,1696218712
453,rancho palos verdes,33.7445,-118.387,17.64,82,0,1.79,US,1696218756
454,vorkuta,67.5,64.0,8.96,98,100,6.38,RU,1696218711
455,natal,-5.795,-35.2094,23.36,94,0,2.06,BR,1696218755
456,madinat sittah uktubar,29.8167,31.05,23.78,70,74,3.19,EG,1696218772
457,richards bay,-28.783,32.0377,16.96,68,92,0.34,ZA,1696218912
458,pahrump,36.2083,-115.9839,17.03,41,25,3.13,US,1696218912
459,sosnogorsk,63.6023,53.8817,9.19,94,61,3.58,RU,1696218912
460,idri,27.5,13.2667,24.15,39,6,7.27,LY,1696218912
461,sault ste. marie,46.5168,-84.3333,17.31,100,100,2.57,CA,1696218347
462,magadan,59.5667,150.8,12.52,69,38,0.22,RU,1696218700
463,idritsa,56.3316,28.8988,7.81,97,56,2.62,RU,1696218912
464,touros,-5.1989,-35.4608,24.11,78,17,5.27,BR,1696218715
465,meraux,29.933,-89.9498,26.99,73,0,2.06,US,1696218913
466,isla mujeres,21.2311,-86.731,25.65,83,82,4.09,MX,1696218913
467,puerto madryn,-42.7692,-65.0385,13.23,58,65,3.5,AR,1696218913
468,nha trang,12.25,109.1833,26.0,74,97,2.23,VN,1696218913
469,bugana,7.9992,7.5836,23.55,97,100,1.53,NG,1696218913
470,davos,46.8043,9.8372,11.04,56,26,1.8,CH,1696218913
471,carauari,-4.8828,-66.8958,25.54,78,83,1.06,BR,1696218771
472,omutninsk,58.67,52.1932,10.88,93,100,3.33,RU,1696218726
473,rikaze,29.25,88.8833,16.75,37,59,0.38,CN,1696218913
474,glace bay,46.1969,-59.957,12.1,93,40,1.03,CA,1696218914
475,ghazni,33.5536,68.4269,13.76,18,0,0.72,AF,1696218914
476,callao,-12.0667,-77.15,19.84,77,75,6.17,PE,1696218742
477,mapimi,25.8167,-103.85,23.36,58,52,2.96,MX,1696218914
478,kailua-kona,19.6406,-155.9956,28.98,78,75,5.66,US,1696218769
479,la'ie,21.6477,-157.9253,28.98,75,14,2.68,US,1696218914
480,toledo,39.8333,-4.0,19.95,37,5,2.72,ES,1696218914
481,penafiel,41.2084,-8.2829,18.9,62,2,0.63,PT,1696218914
482,vila do maio,15.1333,-23.2167,25.44,79,93,4.08,CV,1696218915
483,emerald,-23.5333,148.1667,29.63,30,0,5.72,AU,1696218915
484,elko,41.0002,-115.5012,8.42,89,95,0.89,US,1696218915
485,al burayqah,30.4062,19.5739,23.47,65,0,4.68,LY,1696218915
486,olinda,-8.0089,-34.8553,25.85,69,20,2.06,BR,1696218875
487,northam,51.0333,-4.2167,15.22,98,100,0.89,GB,1696218915
488,mandera,3.9366,41.867,25.22,65,2,4.81,KE,1696218793
489,ilheus,-14.7889,-39.0494,20.83,89,5,0.36,BR,1696218887
490,gandhidham,23.0833,70.1333,30.28,35,9,2.72,IN,1696218915
491,nova xavantina,-14.6667,-52.35,29.2,43,83,0.8,BR,1696218755
492,general conesa,-40.1,-64.4333,19.13,33,100,8.17,AR,1696218916
493,zavetnoye,47.1194,43.8903,14.22,79,77,3.66,RU,1696218916
494,maridi,4.9158,29.4742,20.27,89,97,1.39,SS,1696218916
495,shache,38.4167,77.2406,21.2,19,25,3.71,CN,1696218916
496,nguigmi,14.2495,13.1092,27.51,51,100,4.67,NE,1696218757
497,itaituba,-4.2761,-55.9836,27.45,48,93,1.0,BR,1696218916
498,puerto santa,-8.9906,-78.6456,18.02,91,35,3.79,PE,1696218916
499,camalu,30.85,-116.0667,15.92,64,78,4.95,MX,1696218916
500,ciudad madero,22.2667,-97.8333,29.47,77,99,4.12,MX,1696218917
501,nova sintra,14.8667,-24.7167,23.49,79,95,4.86,CV,1696218753
502,port shepstone,-30.7414,30.455,15.9,75,79,4.42,ZA,1696218677
503,twon-brass,4.3151,6.2418,26.2,85,83,4.28,NG,1696218765
504,axum,14.1245,38.7244,15.54,57,0,2.51,ET,1696218917
505,kill devil hills,36.0307,-75.676,21.1,80,0,1.54,US,1696218917
506,san juan,-31.5375,-68.5364,20.97,36,0,4.69,AR,1696218784
507,tromso,69.6496,18.957,4.01,87,75,1.54,NO,1696218917
508,khuzdar,27.7384,66.6434,24.05,10,0,5.7,PK,1696218917
509,opuwo,-18.0607,13.84,18.86,24,1,0.67,NA,1696218917
510,yatou,37.15,122.3833,23.16,36,46,1.69,CN,1696218918
511,dorado,18.4588,-66.2677,29.42,96,99,1.34,PR,1696218918
512,dara,15.3484,-15.4799,27.98,87,67,3.31,SN,1696218918
513,ghanzi,-21.5667,21.7833,17.92,21,0,4.23,BW,1696218918
514,novodvinsk,64.4165,40.8122,9.32,95,100,4.5,RU,1696218918
515,poshekhon'ye,58.4993,39.1353,10.68,94,26,4.43,RU,1696218918
516,rio grande,-32.035,-52.0986,11.08,79,1,2.84,BR,1696218918
517,kuraymah,18.55,31.85,32.03,19,33,2.26,SD,1696218918
518,craig,40.5153,-107.5464,11.79,61,0,0.0,US,1696218918
519,rabo de peixe,37.8,-25.5833,19.73,99,20,5.66,PT,1696218919
520,kirkwall,58.9848,-2.9587,11.65,87,9,5.66,GB,1696218919
521,pyay,18.8167,95.2167,25.32,95,97,3.88,MM,1696218919
522,karasburg,-28.0167,18.75,17.63,43,0,5.24,NA,1696218919
523,sinabang,2.4803,96.3801,27.17,81,100,5.1,ID,1696218751
524,selfoss,63.9331,-20.9971,7.8,75,95,5.1,IS,1696218727
525,juneau,58.3019,-134.4197,10.68,100,100,5.14,US,1696218528
526,kone,-21.0595,164.8658,24.7,53,40,4.59,NC,1696218751
527,lander,42.833,-108.7307,14.22,47,20,3.6,US,1696218919
528,nema,57.5067,50.5011,10.53,92,100,3.36,RU,1696218919
529,zunyi,27.6867,106.9072,23.51,83,97,2.81,CN,1696218719
530,yuza,39.0,139.9167,23.03,71,42,6.46,JP,1696218747
531,m'sila,35.7058,4.5419,21.7,46,0,1.67,DZ,1696218715
532,zeya,53.75,127.2667,9.38,67,93,0.89,RU,1696218783
533,lamu,-2.2717,40.902,23.12,76,5,4.99,KE,1696218920
534,kourou,5.1552,-52.6478,27.03,79,37,5.25,GF,1696218920
535,ar ruways,24.1103,52.7306,32.07,50,0,4.88,AE,1696218920
536,las khorey,11.1595,48.1967,29.88,49,5,2.63,SO,1696218920
537,aitape,-3.1374,142.3475,29.68,69,64,2.85,PG,1696218920
538,woolgoolga,-30.1106,153.2007,25.58,70,7,4.55,AU,1696218920
539,carutapera,-1.195,-46.02,26.19,81,66,4.14,BR,1696218921
540,marly,50.3456,3.5496,14.88,80,92,3.63,FR,1696218921
541,tegueste,28.5167,-16.3167,25.64,31,0,3.6,ES,1696218921
542,chinnasekkadu,13.1653,80.26,31.01,70,100,6.07,IN,1696218921
543,pitoa,9.3833,13.5333,24.33,85,100,1.1,CM,1696218921
544,weno,7.4515,151.8468,30.97,79,75,1.54,FM,1696218720
545,santa marta,11.2408,-74.199,29.94,75,20,1.03,CO,1696218921
546,jiazi,22.8779,116.067,29.08,70,39,5.2,CN,1696218921
547,cockburn town,21.4612,-71.1419,28.63,74,81,7.1,TC,1696218728
548,nyurba,63.2842,118.3319,2.24,94,100,4.92,RU,1696218921
549,doka,13.5167,35.7667,22.72,88,3,2.25,SD,1696218922
550,tottori,35.5,134.2333,24.04,41,40,4.63,JP,1696218922
551,blain,47.4766,-1.7629,16.02,85,81,1.73,FR,1696218922
552,baruun-urt,46.6806,113.2792,16.96,22,100,4.68,MN,1696218922
553,minden,52.2833,8.9167,17.12,81,71,4.12,DE,1696218922
554,isla vista,34.4133,-119.861,17.13,73,75,2.06,US,1696218922
555,samana,19.2056,-69.3369,26.46,89,84,3.38,DO,1696218922
556,namtsy,62.7161,129.6658,6.75,84,100,1.88,RU,1696218922
557,kez,57.8979,53.7152,11.9,72,99,3.3,RU,1696218923
558,fisterra,42.9049,-9.2629,16.53,89,35,5.38,ES,1696218719
